{"html_attributions": [], "next_page_token": "Aap_uECnBp06J7OymVzo659zWcDcaDV0TxbaRPT6zQYxD6kdMc-3fzfL7OkkI5LEzdW8Wu_gzcZPaWmSF64Sw71glilyIkix45pucU14gdMXpawRHGosAIfu0mFBVoAfknYtb1rCgaJxeLPeGI1h8FbdL0l0M1xTrRBpvAPgBWtpY6r4wDqs3BYqk5lt0G1WA6HsMUAJAihCrG2wccdpbzBAcipAjbj6lRZ0A-ITqSDXJCE2nyZmenWMHy2nS26nEpeE4TELMHo4WUowuekply6qbSStJTxNmzzn6nbGkHlD2raSr_8CwTCqY1IzdHodG8vjQ8NdXzsW9SXORtG0acgL_mSmTFWBi2hlJewU8O4PlutS4-A6RLnMCea1nejhag2DR4WqUPiSfylEYmSyZGWcAQ", "results": [{"business_status": "CLOSED_TEMPORARILY", "formatted_address": "Friedensallee 7-9, 22765 Hamburg, Germany", "geometry": {"location": {"lat": 53.55413799999999, "lng": 9.9268389}, "viewport": {"northeast": {"lat": 53.55574187989271, "lng": 9.92852142989272}, "southwest": {"lat": 53.55304222010727, "lng": 9.925821770107277}}}, "icon": "https://maps.gstatic.com/mapfiles/place_api/icons/v1/png_71/restaurant-71.png", "icon_background_color": "#FF9E67", "icon_mask_base_uri": "https://maps.gstatic.com/mapfiles/place_api/icons/v2/restaurant_pinlet", "name": "GaumenGanoven", "permanently_closed": true, "photos": [{"height": 1500, "html_attributions": ["<a href=\"https://maps.google.com/maps/contrib/115526291382077970235\">A Google User</a>"], "photo_reference": "Aap_uECsytzdCJoAzWrwCVrpf4ZKoDMzvGtnwIl2dIJVvxCOWJMOtZZwtSHIv_39Zs40E2D7ygs29AJv1yNlRQVnVOgXiWCOjNF1XkhE56W58qVrMTb5RYp7QTLUFHRzFlwhiPyoJHeG0AWOqJBvOQykwMSbHIvRogW6eD3r7yG_uC5jhLFB", "width": 1000}], "place_id": "ChIJdw7mwY-FsUcRujZRCXLHyZY", "plus_code": {"compound_code": "HW3G+MP Hamburg", "global_code": "9F5FHW3G+MP"}, "rating": 4.8, "reference": "ChIJdw7mwY-FsUcRujZRCXLHyZY", "types": ["restaurant", "bar", "food", "point_of_interest", "establishment"], "user_ratings_total": 158}, {"business_status": "OPERATIONAL", "formatted_address": "Harkortstieg 4, 22765 Hamburg, Germany", "geometry": {"location": {"lat": 53.558567, "lng": 9.9394301}, "viewport": {"northeast": {"lat": 53.55991682989272, "lng": 9.940779929892722}, "southwest": {"lat": 53.55721717010727, "lng": 9.938080270107278}}}, "icon": "https://maps.gstatic.com/mapfiles/place_api/icons/v1/png_71/restaurant-71.png", "icon_background_color": "#FF9E67", "icon_mask_base_uri": "https://maps.gstatic.com/mapfiles/place_api/icons/v2/restaurant_pinlet", "name": "Tibet Restaurant Altona", "opening_hours": {"open_now": true}, "photos": [{"height": 3024, "html_attributions": ["<a href=\"https://maps.google.com/maps/contrib/110815792405916313295\">Moritz Bayerl</a>"], "photo_reference": "Aap_uECHACz-329_mxV7WADwXwvJk_0cqRMZapaNfPhq6_uefPnUkGkGrkVwT4x7N07dO3wj37lZSFGKnWQxbZbEiTjsblgEL-JTiPJORIPG4im4bCuJR8SKzpAY46V63h7xmyCBLrOiHhJxtgkwMxCM_4JFEjRu9i_qS4gEAQtN31dXc7s9", "width": 4032}], "place_id": "ChIJiyHFOYqFsUcR3D5TBdMPDAc", "plus_code": {"compound_code": "HW5Q+CQ Hamburg", "global_code": "9F5FHW5Q+CQ"}, "price_level": 2, "rating": 4.6, "reference": "ChIJiyHFOYqFsUcR3D5TBdMPDAc", "types": ["restaurant", "food", "point_of_interest", "establishment"], "user_ratings_total": 510}, {"business_status": "OPERATIONAL", "formatted_address": "Neue Gro\u00dfe Bergstra\u00dfe 18, 22767 Hamburg, Germany", "geometry": {"location": {"lat": 53.551423, "lng": 9.939356}, "viewport": {"northeast": {"lat": 53.55276447989272, "lng": 9.940769479892722}, "southwest": {"lat": 53.55006482010727, "lng": 9.938069820107279}}}, "icon": "https://maps.gstatic.com/mapfiles/place_api/icons/v1/png_71/restaurant-71.png", "icon_background_color": "#FF9E67", "icon_mask_base_uri": "https://maps.gstatic.com/mapfiles/place_api/icons/v2/restaurant_pinlet", "name": "Jim Block Altona", "opening_hours": {"open_now": true}, "photos": [{"height": 4032, "html_attributions": ["<a href=\"https://maps.google.com/maps/contrib/114061653864689115980\">Hatim Hilal</a>"], "photo_reference": "Aap_uEBCOtmziinNlxwZV3jiMIn3yLta-evgeluAUPIb9gqEPXY_roVN42Z0x6TPOJKWK3BPt8QCf7m6yP2ts57hXNChnOLi1ttfEV55tssO4b8jeJb6S2kGhyySECyieE2UKd6OuK2YBLm5w06YBb-P76SpKoLr1omJiWX5tOQEiAOJ2p6F", "width": 3024}], "place_id": "ChIJh9Z7-YeFsUcRElOUy8TjsqU", "plus_code": {"compound_code": "HW2Q+HP Hamburg", "global_code": "9F5FHW2Q+HP"}, "price_level": 2, "rating": 4.2, "reference": "ChIJh9Z7-YeFsUcRElOUy8TjsqU", "types": ["restaurant", "food", "point_of_interest", "establishment"], "user_ratings_total": 1252}, {"business_status": "OPERATIONAL", "formatted_address": "Spritzenpl. 4, 22765 Hamburg, Germany", "geometry": {"location": {"lat": 53.5512193, "lng": 9.9307018}, "viewport": {"northeast": {"lat": 53.55263117989273, "lng": 9.932048079892722}, "southwest": {"lat": 53.54993152010728, "lng": 9.929348420107278}}}, "icon": "https://maps.gstatic.com/mapfiles/place_api/icons/v1/png_71/restaurant-71.png", "icon_background_color": "#FF9E67", "icon_mask_base_uri": "https://maps.gstatic.com/mapfiles/place_api/icons/v2/restaurant_pinlet", "name": "Marta", "opening_hours": {"open_now": true}, "photos": [{"height": 1291, "html_attributions": ["<a href=\"https://maps.google.com/maps/contrib/113824727609574565956\">A Google User</a>"], "photo_reference": "Aap_uEB1dJTASJSil1Ivu71AgyCMdWh7j7964EDrh3rAK5CM4jcDX3MJnN3IJ2zdqwgRbcg30jbvMg8KpAO9k0s_O7oLLHPxQH9-e3HsSC_6vf80eMwDhcKMOVEHahxZe-Z_im697lCRS3CyeRpcFs-9TM9y5c5-mfA16Nap2Xr-jBHgOewx", "width": 2362}], "place_id": "ChIJZRnVx_-FsUcRV7T7JyP_sE8", "plus_code": {"compound_code": "HW2J+F7 Hamburg", "global_code": "9F5FHW2J+F7"}, "rating": 4.8, "reference": "ChIJZRnVx_-FsUcRV7T7JyP_sE8", "types": ["restaurant", "food", "point_of_interest", "establishment"], "user_ratings_total": 72}, {"business_status": "OPERATIONAL", "formatted_address": "Rothestra\u00dfe 38, 22765 Hamburg, Germany", "geometry": {"location": {"lat": 53.5495034, "lng": 9.9274697}, "viewport": {"northeast": {"lat": 53.55084652989272, "lng": 9.928754129892722}, "southwest": {"lat": 53.54814687010728, "lng": 9.926054470107278}}}, "icon": "https://maps.gstatic.com/mapfiles/place_api/icons/v1/png_71/restaurant-71.png", "icon_background_color": "#FF9E67", "icon_mask_base_uri": "https://maps.gstatic.com/mapfiles/place_api/icons/v2/restaurant_pinlet", "name": "Ethio Restaurant \u00c4thiopische Spezialit\u00e4ten", "opening_hours": {"open_now": true}, "photos": [{"height": 2986, "html_attributions": ["<a href=\"https://maps.google.com/maps/contrib/104871738173142093055\">Susana Worku</a>"], "photo_reference": "Aap_uED6dS-9UWEbf5esVNQMKvXgyfUXYSNWlQrDQmJAhBEIKolXCQOIcW9VCt9SEcP5qA67fjHAuEIQ8elw0eMnM8ve5hpTXo6KKfI5V-P5HqGmUNB-0JazZ5XeCHPjFGU5wVV74z3Z6aCwMtd1oCvVwC71rtGGc3_2ZIJIfRaqVghlflhy", "width": 4586}], "place_id": "ChIJCedegI-FsUcRnj_9pFtDoBg", "plus_code": {"compound_code": "GWXG+RX Hamburg", "global_code": "9F5FGWXG+RX"}, "rating": 4.9, "reference": "ChIJCedegI-FsUcRnj_9pFtDoBg", "types": ["restaurant", "food", "point_of_interest", "establishment"], "user_ratings_total": 117}, {"business_status": "OPERATIONAL", "formatted_address": "Holl\u00e4ndische Reihe 26, 22765 Hamburg, Germany", "geometry": {"location": {"lat": 53.5478172, "lng": 9.9293252}, "viewport": {"northeast": {"lat": 53.54911052989272, "lng": 9.930687079892722}, "southwest": {"lat": 53.54641087010727, "lng": 9.927987420107279}}}, "icon": "https://maps.gstatic.com/mapfiles/place_api/icons/v1/png_71/restaurant-71.png", "icon_background_color": "#FF9E67", "icon_mask_base_uri": "https://maps.gstatic.com/mapfiles/place_api/icons/v2/restaurant_pinlet", "name": "Guatemaya Guatemaltekisches Restaurant", "opening_hours": {"open_now": true}, "photos": [{"height": 2048, "html_attributions": ["<a href=\"https://maps.google.com/maps/contrib/107487745194176951750\">Norina Poetter</a>"], "photo_reference": "Aap_uEBgy5JbKZfPvJSwwegu1_zy0pnXmZwpwDk8tuR2ZS4Y7F8zw-hvA-dHVtDKk400UTrnLKz8R9w3fiWq0nqDV0zKncOQKoaW8TIiqw-E0EB9eQEYgjzJ009MZf-4nxjcTH4xXwsehjkE_xUhPoq0wnxG8wxOIA8XHo9jefToYGLB4DW6", "width": 1536}], "place_id": "ChIJgz4wlXeFsUcR5oZ19Dwn10E", "plus_code": {"compound_code": "GWXH+4P Hamburg", "global_code": "9F5FGWXH+4P"}, "rating": 4.9, "reference": "ChIJgz4wlXeFsUcR5oZ19Dwn10E", "types": ["restaurant", "food", "point_of_interest", "establishment"], "user_ratings_total": 55}, {"business_status": "OPERATIONAL", "formatted_address": "Ottenser Hauptstra\u00dfe 1, 22765 Hamburg, Germany", "geometry": {"location": {"lat": 53.5520467, "lng": 9.9331024}, "viewport": {"northeast": {"lat": 53.55346992989271, "lng": 9.934757829892721}, "southwest": {"lat": 53.55077027010727, "lng": 9.932058170107277}}}, "icon": "https://maps.gstatic.com/mapfiles/place_api/icons/v1/png_71/restaurant-71.png", "icon_background_color": "#FF9E67", "icon_mask_base_uri": "https://maps.gstatic.com/mapfiles/place_api/icons/v2/restaurant_pinlet", "name": "Schweinske in Ottensen", "opening_hours": {"open_now": true}, "photos": [{"height": 1960, "html_attributions": ["<a href=\"https://maps.google.com/maps/contrib/113184957102204326922\">Dmitry Gurovich</a>"], "photo_reference": "Aap_uEB1Cq187tbbw5rteJ4lJ_u5CBsASAvuMjr240aNZcPDFCRF_DFadXEy1tvEnvshdRLyHUbZmklhabIK7uCpebY3scChDTZvpre3LYS04cW4m_nYQvU_cuHyfHci1uB4FKW1iwvPMNEKLmVHQTQy_164JBS_ydnqwiL0tIJ9eSsMvc7V", "width": 4032}], "place_id": "ChIJNwkJBIaFsUcREBD0S2uxX28", "plus_code": {"compound_code": "HW2M+R6 Hamburg", "global_code": "9F5FHW2M+R6"}, "price_level": 1, "rating": 4.1, "reference": "ChIJNwkJBIaFsUcREBD0S2uxX28", "types": ["restaurant", "food", "point_of_interest", "establishment"], "user_ratings_total": 1344}, {"business_status": "OPERATIONAL", "formatted_address": "Paul-Nevermann-Platz 2, 22765 Hamburg, Germany", "geometry": {"location": {"lat": 53.552639, "lng": 9.936356499999999}, "viewport": {"northeast": {"lat": 53.55391782989272, "lng": 9.937594879892721}, "southwest": {"lat": 53.55121817010728, "lng": 9.934895220107277}}}, "icon": "https://maps.gstatic.com/mapfiles/place_api/icons/v1/png_71/restaurant-71.png", "icon_background_color": "#FF9E67", "icon_mask_base_uri": "https://maps.gstatic.com/mapfiles/place_api/icons/v2/restaurant_pinlet", "name": "K\u00f6z Urfa", "opening_hours": {"open_now": true}, "photos": [{"height": 2268, "html_attributions": ["<a href=\"https://maps.google.com/maps/contrib/102843955666688523821\">Weil aber Baum</a>"], "photo_reference": "Aap_uEBdW58pj4Z2pU9vSgw0hctgyOZgx6jBS53bmvTzj1eNj5Ck9yyfJqXBdUC5tLEsv9Hm4KXsArxSbnr-27g3B2y32ed4khkNVOAMF_l_uQCx_Mfih4f2GpEbLFtBmWIhPZddf1o24OM-IBQMhXFO6GUuWxcVddYbJmyhr8UTKPtO9qhC", "width": 4032}], "place_id": "ChIJ4f8Lh4iFsUcRkJRgw04T-bU", "plus_code": {"compound_code": "HW3P+3G Hamburg", "global_code": "9F5FHW3P+3G"}, "price_level": 2, "rating": 4.4, "reference": "ChIJ4f8Lh4iFsUcRkJRgw04T-bU", "types": ["restaurant", "food", "point_of_interest", "establishment"], "user_ratings_total": 4336}, {"business_status": "OPERATIONAL", "formatted_address": "Spritzenpl. 18, 22765 Hamburg, Germany", "geometry": {"location": {"lat": 53.5517079, "lng": 9.9306012}, "viewport": {"northeast": {"lat": 53.55305772989272, "lng": 9.931951029892724}, "southwest": {"lat": 53.55035807010727, "lng": 9.92925137010728}}}, "icon": "https://maps.gstatic.com/mapfiles/place_api/icons/v1/png_71/restaurant-71.png", "icon_background_color": "#FF9E67", "icon_mask_base_uri": "https://maps.gstatic.com/mapfiles/place_api/icons/v2/restaurant_pinlet", "name": "Restaurant Kypros", "opening_hours": {"open_now": true}, "photos": [{"height": 2268, "html_attributions": ["<a href=\"https://maps.google.com/maps/contrib/114777338687376434690\">Marco Behrends</a>"], "photo_reference": "Aap_uECH3jHTtEiht72mpHDTBCvEhgD5VG6dyfpO_l9IyCuk2eMTuKT1uik_tRo9IkpzKp6PSdVQUezfoScYydMCryq8EMW0QnAOLCg69-pRM20A1to2p69rkRuFvzBgt4g1Wbgprxsxs2K_VW6aHFA8fd_pbugaD43yu7G9cN8kPlKS5XbK", "width": 4032}], "place_id": "ChIJ89g-8YWFsUcR_zHZ80eXxM4", "plus_code": {"compound_code": "HW2J+M6 Hamburg", "global_code": "9F5FHW2J+M6"}, "price_level": 2, "rating": 4.3, "reference": "ChIJ89g-8YWFsUcR_zHZ80eXxM4", "types": ["restaurant", "food", "point_of_interest", "establishment"], "user_ratings_total": 954}, {"business_status": "OPERATIONAL", "formatted_address": "Max-Brauer-Allee 54, 22765 Hamburg, Germany", "geometry": {"location": {"lat": 53.5525841, "lng": 9.937697499999999}, "viewport": {"northeast": {"lat": 53.55383967989272, "lng": 9.939002979892724}, "southwest": {"lat": 53.55114002010728, "lng": 9.93630332010728}}}, "icon": "https://maps.gstatic.com/mapfiles/place_api/icons/v1/png_71/restaurant-71.png", "icon_background_color": "#FF9E67", "icon_mask_base_uri": "https://maps.gstatic.com/mapfiles/place_api/icons/v2/restaurant_pinlet", "name": "The Saloon Steakhouse", "opening_hours": {"open_now": true}, "photos": [{"height": 4032, "html_attributions": ["<a href=\"https://maps.google.com/maps/contrib/110136816242025151878\">jessallen25</a>"], "photo_reference": "Aap_uEAymdSy21iYx2toO7Ss_zITTrcfclu_x57CyzITbpQEwZNM5hAfQmJz0fGBmae3aKOudefwSMOjOOeYrMsc4y24l4oz3toCV9WKEVDp6cDKD6aDAA1jRjz6ldeQgNC9uYCe0naciL4mgsYv4XT_wcb-SS_prvNFP3-adbzxuEsI3ywP", "width": 3024}], "place_id": "ChIJY_NLrFyFsUcRmiQ6V9u2Awc", "plus_code": {"compound_code": "HW3Q+23 Hamburg", "global_code": "9F5FHW3Q+23"}, "price_level": 3, "rating": 4.7, "reference": "ChIJY_NLrFyFsUcRmiQ6V9u2Awc", "types": ["restaurant", "food", "point_of_interest", "establishment"], "user_ratings_total": 544}, {"business_status": "OPERATIONAL", "formatted_address": "Gro\u00dfe Bergstra\u00dfe 255, 22767 Hamburg, Germany", "geometry": {"location": {"lat": 53.5523128, "lng": 9.939113599999999}, "viewport": {"northeast": {"lat": 53.55366262989272, "lng": 9.940463429892723}, "southwest": {"lat": 53.55096297010728, "lng": 9.93776377010728}}}, "icon": "https://maps.gstatic.com/mapfiles/place_api/icons/v1/png_71/restaurant-71.png", "icon_background_color": "#FF9E67", "icon_mask_base_uri": "https://maps.gstatic.com/mapfiles/place_api/icons/v2/restaurant_pinlet", "name": "Klippkroog", "opening_hours": {"open_now": true}, "photos": [{"height": 4032, "html_attributions": ["<a href=\"https://maps.google.com/maps/contrib/110136816242025151878\">jessallen25</a>"], "photo_reference": "Aap_uEBxmmDGeCs6X5PJfuMrkeqyNmbyZ7H1oiWwBXON5HL3emsTD-a4i2I0qu6LhNj4es2mmGFmbfqPMU6kzSQWfT79VIKMUBqVWuOu9kvvIvHltXM-eCoyZkyYoWCDP5no1vjH31NW1KY9E97vE2gAGJvQ5c_ha9A4JgdMikJHNDE-1IJx", "width": 3024}], "place_id": "ChIJV2VGD4iFsUcR5YhCEh5L3HU", "plus_code": {"compound_code": "HW2Q+WJ Hamburg", "global_code": "9F5FHW2Q+WJ"}, "price_level": 2, "rating": 4.2, "reference": "ChIJV2VGD4iFsUcR5YhCEh5L3HU", "types": ["restaurant", "food", "point_of_interest", "establishment"], "user_ratings_total": 758}, {"business_status": "OPERATIONAL", "formatted_address": "Bahrenfelder Str. 172, 22765 Hamburg, Germany", "geometry": {"location": {"lat": 53.5543602, "lng": 9.9287979}, "viewport": {"northeast": {"lat": 53.55573372989273, "lng": 9.93004937989272}, "southwest": {"lat": 53.55303407010728, "lng": 9.927349720107276}}}, "icon": "https://maps.gstatic.com/mapfiles/place_api/icons/v1/png_71/restaurant-71.png", "icon_background_color": "#FF9E67", "icon_mask_base_uri": "https://maps.gstatic.com/mapfiles/place_api/icons/v2/restaurant_pinlet", "name": "Restaurant L\u00b4Orient", "opening_hours": {"open_now": true}, "photos": [{"height": 1494, "html_attributions": ["<a href=\"https://maps.google.com/maps/contrib/101086904813369220350\">A Google User</a>"], "photo_reference": "Aap_uEAJjHLAIjv9LjAj8vMo_5BUsEPVxaxPbwdHBavJCcIaUD93Rkf1IBoJv8BgwNL54QvIbzEuJGhhusTx_zhP_CL_alfky5-zGl8VfY9GGDSpubhFin2K8p6qOmFYNeDKBB2-BenOibntXOzazYfKswNXAlVwvR0tExvztb7QNKP_JwXB", "width": 2240}], "place_id": "ChIJL2oPo4-FsUcRZaov1qtThjs", "plus_code": {"compound_code": "HW3H+PG Hamburg", "global_code": "9F5FHW3H+PG"}, "price_level": 2, "rating": 4.6, "reference": "ChIJL2oPo4-FsUcRZaov1qtThjs", "types": ["restaurant", "food", "point_of_interest", "establishment"], "user_ratings_total": 780}, {"business_status": "OPERATIONAL", "formatted_address": "Max-Brauer-Allee 12, 22765 Hamburg, Germany", "geometry": {"location": {"lat": 53.54716819999999, "lng": 9.9365244}, "viewport": {"northeast": {"lat": 53.54851802989272, "lng": 9.937874229892723}, "southwest": {"lat": 53.54581837010728, "lng": 9.935174570107279}}}, "icon": "https://maps.gstatic.com/mapfiles/place_api/icons/v1/png_71/restaurant-71.png", "icon_background_color": "#FF9E67", "icon_mask_base_uri": "https://maps.gstatic.com/mapfiles/place_api/icons/v2/restaurant_pinlet", "name": "Barcelonatapas", "opening_hours": {"open_now": true}, "photos": [{"height": 4000, "html_attributions": ["<a href=\"https://maps.google.com/maps/contrib/108187875556390298267\">F. L.</a>"], "photo_reference": "Aap_uEDio-tf62MOGBRpglt8_otveVp8yoFxozHjScB60GJG8AsrkHV55HE5VyEeZqTBofBWC_ai2PjsECh5YwUej0I6_TWgEKA6Epaufh2ol6fX0QCqVNo34_aZ55fJKog6HpStacm8n4Evi4C0Z8AIWIME3GRSkS5Lm95w7KRW2m3x-8Gt", "width": 3000}], "place_id": "ChIJOQgXi92FsUcRe-AaBCKJdu8", "plus_code": {"compound_code": "GWWP+VJ Hamburg", "global_code": "9F5FGWWP+VJ"}, "rating": 4.5, "reference": "ChIJOQgXi92FsUcRe-AaBCKJdu8", "types": ["restaurant", "food", "point_of_interest", "establishment"], "user_ratings_total": 372}, {"business_status": "OPERATIONAL", "formatted_address": "M\u00f6rkenstra\u00dfe 10, 22767 Hamburg, Germany", "geometry": {"location": {"lat": 53.5493697, "lng": 9.9478178}, "viewport": {"northeast": {"lat": 53.55064377989272, "lng": 9.949099529892722}, "southwest": {"lat": 53.54794412010727, "lng": 9.946399870107278}}}, "icon": "https://maps.gstatic.com/mapfiles/place_api/icons/v1/png_71/restaurant-71.png", "icon_background_color": "#FF9E67", "icon_mask_base_uri": "https://maps.gstatic.com/mapfiles/place_api/icons/v2/restaurant_pinlet", "name": "Willi's Hamburg - Sandwiches, Cafe", "opening_hours": {"open_now": true}, "photos": [{"height": 2954, "html_attributions": ["<a href=\"https://maps.google.com/maps/contrib/110136816242025151878\">jessallen25</a>"], "photo_reference": "Aap_uEBhkhjpHRD3mkfHeef1f5FY_kDyOp5XiICyVd-7bvhT8w57fC7IOorrd0YSedqaLUzlzK7KTvmFGmjHpyYx3T9HwqrHvpRNdiAdI1s5P9uKglP6gz2G7qZgeAclJi3zpU1ECG1_wPYdMCdAV2P1booG3bzBei9LffvsS1uGhd84BaSI", "width": 2449}], "place_id": "ChIJybWu6y-PsUcREbELDWca3zQ", "plus_code": {"compound_code": "GWXX+P4 Hamburg", "global_code": "9F5FGWXX+P4"}, "rating": 4.8, "reference": "ChIJybWu6y-PsUcREbELDWca3zQ", "types": ["restaurant", "meal_takeaway", "cafe", "food", "point_of_interest", "establishment"], "user_ratings_total": 17}, {"business_status": "OPERATIONAL", "formatted_address": "Ottenser Hauptstra\u00dfe 1, 22765 Hamburg, Germany", "geometry": {"location": {"lat": 53.55207, "lng": 9.933019999999999}, "viewport": {"northeast": {"lat": 53.55348677989272, "lng": 9.934716629892721}, "southwest": {"lat": 53.55078712010728, "lng": 9.932016970107277}}}, "icon": "https://maps.gstatic.com/mapfiles/place_api/icons/v1/png_71/restaurant-71.png", "icon_background_color": "#FF9E67", "icon_mask_base_uri": "https://maps.gstatic.com/mapfiles/place_api/icons/v2/restaurant_pinlet", "name": "Bok Imbiss Hamburg Altona", "opening_hours": {"open_now": true}, "photos": [{"height": 2976, "html_attributions": ["<a href=\"https://maps.google.com/maps/contrib/107068336718833838862\">Frauke 64</a>"], "photo_reference": "Aap_uEBQodV9_L6P2E-6_DIlnPiu-LAH5ewgEvGYQz_yYG_mndx7TqO14RUliNL3mw8QZHekwNQHMuZ_G_s8u9P1VVt92hkcmDCDjkqVoTl94pvvPAu2yEDOC_d8eSrjY0c1EdpYCX9lZ3yifCNdG6csctccKydTB4ymy6iKdu8fGuwNZmAj", "width": 3968}], "place_id": "ChIJNwkJBIaFsUcRajp8cuaONlY", "plus_code": {"compound_code": "HW2M+R6 Hamburg", "global_code": "9F5FHW2M+R6"}, "price_level": 2, "rating": 4.1, "reference": "ChIJNwkJBIaFsUcRajp8cuaONlY", "types": ["meal_takeaway", "restaurant", "food", "point_of_interest", "establishment"], "user_ratings_total": 631}, {"business_status": "OPERATIONAL", "formatted_address": "Bahrenfelder Str. 169, 22765 Hamburg, Germany", "geometry": {"location": {"lat": 53.5543461, "lng": 9.9284344}, "viewport": {"northeast": {"lat": 53.55559842989272, "lng": 9.929581979892722}, "southwest": {"lat": 53.55289877010728, "lng": 9.926882320107278}}}, "icon": "https://maps.gstatic.com/mapfiles/place_api/icons/v1/png_71/restaurant-71.png", "icon_background_color": "#FF9E67", "icon_mask_base_uri": "https://maps.gstatic.com/mapfiles/place_api/icons/v2/restaurant_pinlet", "name": "Restaurant Balutschistan Altona", "opening_hours": {"open_now": true}, "photos": [{"height": 3024, "html_attributions": ["<a href=\"https://maps.google.com/maps/contrib/108076888859012832265\">ALI RAZA</a>"], "photo_reference": "Aap_uEBpXbSQfzqmoaLu-uHnXJrCMVQ6WaYFMrR7hZVyniq4y4f1UtK8ibmCxJIS0Ei5DHsQdgdWy3KIvU6grPjZZgJai4kGK0PneBvwCD9OQYF759_6QTAuVrapQCk9-dOc0FYrtiwLcyPt8H_DbWNKi7P153w-XuhU599m629rNYOgo0UF", "width": 4032}], "place_id": "ChIJtTwzuMeIsUcRauQ9lR2DELI", "plus_code": {"compound_code": "HW3H+P9 Hamburg", "global_code": "9F5FHW3H+P9"}, "price_level": 2, "rating": 4.2, "reference": "ChIJtTwzuMeIsUcRauQ9lR2DELI", "types": ["restaurant", "food", "point_of_interest", "establishment"], "user_ratings_total": 375}, {"business_status": "OPERATIONAL", "formatted_address": "Friedensallee 9, 22765 Hamburg, Germany", "geometry": {"location": {"lat": 53.5544162, "lng": 9.927119099999999}, "viewport": {"northeast": {"lat": 53.55590472989272, "lng": 9.92851962989272}, "southwest": {"lat": 53.55320507010727, "lng": 9.925819970107277}}}, "icon": "https://maps.gstatic.com/mapfiles/place_api/icons/v1/png_71/restaurant-71.png", "icon_background_color": "#FF9E67", "icon_mask_base_uri": "https://maps.gstatic.com/mapfiles/place_api/icons/v2/restaurant_pinlet", "name": "RESTAURANT EISENSTEIN | Zeitgem\u00e4\u00dfe, europ\u00e4ische K\u00fcche", "opening_hours": {"open_now": true}, "photos": [{"height": 4032, "html_attributions": ["<a href=\"https://maps.google.com/maps/contrib/110157345391027658853\">Larissa Schmidt</a>"], "photo_reference": "Aap_uEBxu1yCneLlfJNBcMQsHzEbDEhDHJ7mmjPELZ9oJHcYpqJu0XayNvAal8nrAX3mAF310BToO7g-qNwhofFr6BAF775GZxo6WvRxxa2JwB88bqIwhgqJ4Deg7S9k6SI9YLcVsxVV5W0VO-Tyu3V1rzyaoGf16JV14JT66OtiAyaaAAqf", "width": 3024}], "place_id": "ChIJJ0IGwo-FsUcRzloxOkoTA98", "plus_code": {"compound_code": "HW3G+QR Hamburg", "global_code": "9F5FHW3G+QR"}, "price_level": 2, "rating": 4.1, "reference": "ChIJJ0IGwo-FsUcRzloxOkoTA98", "types": ["restaurant", "food", "point_of_interest", "establishment"], "user_ratings_total": 711}, {"business_status": "OPERATIONAL", "formatted_address": "Ottenser Hauptstra\u00dfe 32, 22765 Hamburg, Germany", "geometry": {"location": {"lat": 53.5520679, "lng": 9.9292514}, "viewport": {"northeast": {"lat": 53.55337527989273, "lng": 9.930621829892722}, "southwest": {"lat": 53.55067562010728, "lng": 9.927922170107278}}}, "icon": "https://maps.gstatic.com/mapfiles/place_api/icons/v1/png_71/restaurant-71.png", "icon_background_color": "#FF9E67", "icon_mask_base_uri": "https://maps.gstatic.com/mapfiles/place_api/icons/v2/restaurant_pinlet", "name": "Granat", "opening_hours": {"open_now": true}, "photos": [{"height": 4183, "html_attributions": ["<a href=\"https://maps.google.com/maps/contrib/115823491602117561858\">Joe Tonne</a>"], "photo_reference": "Aap_uEAod875vEtUfEAEb7FZ_w5WyaLJE61ijeN2uId1_L9qff7gRxl_O-nJ-dN2qBXVGXUThPMHDKMcp91sB1CcbZEHY7uiJIy_QmAgnd2zDL3SxOQCymxNS_VlH4p1bAmRSuAw6jhPtM9D7GjXz43g0YBCjO4NXoo1PxY2uQerbY-0m0cQ", "width": 3456}], "place_id": "ChIJZUt2TOGFsUcR1KUu8ZogFGA", "plus_code": {"compound_code": "HW2H+RP Hamburg", "global_code": "9F5FHW2H+RP"}, "rating": 4.9, "reference": "ChIJZUt2TOGFsUcR1KUu8ZogFGA", "types": ["restaurant", "bar", "food", "point_of_interest", "establishment"], "user_ratings_total": 40}, {"business_status": "OPERATIONAL", "formatted_address": "Holstenstra\u00dfe 185, 22765 Hamburg, Germany", "geometry": {"location": {"lat": 53.5603956, "lng": 9.9484849}, "viewport": {"northeast": {"lat": 53.56175407989272, "lng": 9.949717279892722}, "southwest": {"lat": 53.55905442010727, "lng": 9.947017620107276}}}, "icon": "https://maps.gstatic.com/mapfiles/place_api/icons/v1/png_71/restaurant-71.png", "icon_background_color": "#FF9E67", "icon_mask_base_uri": "https://maps.gstatic.com/mapfiles/place_api/icons/v2/restaurant_pinlet", "name": "Macaibo", "opening_hours": {"open_now": true}, "photos": [{"height": 680, "html_attributions": ["<a href=\"https://maps.google.com/maps/contrib/115911027471388139636\">Macaibo</a>"], "photo_reference": "Aap_uEAOZuDhxzrbXOnhcZIrGwby2WOd-6IW9nn1Soi_w3LXR3V7P3nvRe6_Md-PjMySKQN-hA9cYI9UGP46BQCfA5LXVObulN3jvJy7sBfruWHCmRfgGliyV65bHv2UCvlfzAe0cpHFAx-Lp6NOR0w-9jdJzhoer42eLkiIwz7NS1s7dJjp", "width": 1022}], "place_id": "ChIJeTat7mCPsUcRrEMpIlKVj8g", "plus_code": {"compound_code": "HW6X+59 Hamburg", "global_code": "9F5FHW6X+59"}, "price_level": 1, "rating": 4.6, "reference": "ChIJeTat7mCPsUcRrEMpIlKVj8g", "types": ["restaurant", "food", "point_of_interest", "establishment"], "user_ratings_total": 524}, {"business_status": "OPERATIONAL", "formatted_address": "Spritzenpl. 11, 22765 Hamburg, Germany", "geometry": {"location": {"lat": 53.5514136, "lng": 9.9310747}, "viewport": {"northeast": {"lat": 53.55270487989272, "lng": 9.932477929892721}, "southwest": {"lat": 53.55000522010727, "lng": 9.929778270107278}}}, "icon": "https://maps.gstatic.com/mapfiles/place_api/icons/v1/png_71/restaurant-71.png", "icon_background_color": "#FF9E67", "icon_mask_base_uri": "https://maps.gstatic.com/mapfiles/place_api/icons/v2/restaurant_pinlet", "name": "Petit Amour", "opening_hours": {"open_now": true}, "photos": [{"height": 2268, "html_attributions": ["<a href=\"https://maps.google.com/maps/contrib/115906482564739514953\">Nicolas Ahrens-Hein</a>"], "photo_reference": "Aap_uEByO8GoFA3wA5SaJbu2JJ0wrOkvTQGP2zI4ZWAsIDGARSmXrjdPTPTgcc_AeV0Kr5x2mRFJV9posDFxWTWt4RXhvvMcypuiwsF0cPD2u86wBE0sSMLok94n26Mn74jPI067MgUUU9XqduzdKR-Z6hTLFS5tbMoe8MiL4jf7AhBgB3ir", "width": 4032}], "place_id": "ChIJr7up6YWFsUcRdD7M3YrquGY", "plus_code": {"compound_code": "HW2J+HC Hamburg", "global_code": "9F5FHW2J+HC"}, "price_level": 4, "rating": 4.7, "reference": "ChIJr7up6YWFsUcRdD7M3YrquGY", "types": ["restaurant", "food", "point_of_interest", "establishment"], "user_ratings_total": 96}], "status": "OK"}